timestamp,ang_vel_x,ang_vel_y,ang_vel_z,lin_vel_x,lin_vel_y,lin_vel_z,force_x,force_y,force_z,moment_x,moment_y,moment_z,action_thrust,action_roll,action_pitch,action_yaw
0.0,10.0,10.0,10.0,0.0,0.0,0.0,-0.0,-0.0,0.020437501,-0.010000001,-0.010000001,-0.010000001,9.81,0.0,0.0,0.0
0.0020833334419876337,9.063713,9.471015,9.726372,0.00060836825,-0.0011533503,-0.019683016,-0.0,0.0,0.040832426,-0.009063713,-0.009471015,-0.009726373,9.81,0.0,0.0,0.0
0.004166666883975267,8.429811,9.147582,9.460604,0.0018110274,-0.0028133928,-0.03885538,-0.0,0.0,0.06118486,-0.008429811,-0.009147583,-0.009460604,9.81,0.0,0.0,0.0
0.006250000558793545,7.8411846,8.828345,9.202269,0.0036767581,-0.005094283,-0.05748366,-0.0,0.0,0.0814949,-0.007841185,-0.008828346,-0.009202269,9.81,0.0,0.0,0.0
0.008333333767950535,7.2926636,8.511778,8.951114,0.0061418395,-0.007943051,-0.075542174,-0.0,0.0,0.101762615,-0.007292664,-0.008511778,-0.0089511145,9.81,0.0,0.0,0.0
0.010416666977107525,6.781714,8.198622,8.706878,0.00914461,-0.011309361,-0.09301172,-0.0,0.0,0.12198811,-0.0067817145,-0.008198622,-0.008706878,9.81,0.0,0.0,0.0
0.012500000186264515,6.3058877,7.889519,8.469298,0.012627289,-0.015147163,-0.109878644,-0.0,0.0,0.14217147,-0.006305888,-0.007889519,-0.0084692985,9.81,0.0,0.0,0.0
0.014583333395421505,5.862861,7.5850873,8.238146,0.016535785,-0.019414363,-0.12613387,-0.0,0.0,0.16231278,-0.0058628614,-0.007585088,-0.008238146,9.81,0.0,0.0,0.0
0.01666666753590107,5.4504466,7.285935,8.013213,0.020819653,-0.02407251,-0.14177227,-0.0,0.0,0.18241213,-0.005450447,-0.0072859353,-0.008013214,9.81,0.0,0.0,0.0
0.01875000074505806,5.0666003,6.9926744,7.7943106,0.025432192,-0.029086692,-0.15679193,-0.0,0.0,0.20246962,-0.0050666006,-0.006992675,-0.007794311,9.81,0.0,0.0,0.0
0.02083333395421505,4.7094297,6.705911,7.5812697,0.03032995,-0.03442482,-0.17119342,-0.0,0.0,0.2224853,-0.00470943,-0.0067059114,-0.0075812703,9.81,0.0,0.0,0.0
0.02291666716337204,4.3772025,6.4262376,7.3739614,0.035473213,-0.04005803,-0.18497981,-0.0,0.0,0.2424593,-0.0043772026,-0.006426238,-0.0073739616,9.81,0.0,0.0,0.0
0.02500000037252903,4.0683007,6.1541677,7.1722465,0.040825643,-0.045960106,-0.19815545,-0.0,0.0,0.2623917,-0.004068301,-0.006154168,-0.007172247,9.81,0.0,0.0,0.0
0.02708333358168602,3.781216,5.8901362,6.9759994,0.04635399,-0.052107133,-0.21072601,-0.0,0.0,0.28228253,-0.003781216,-0.0058901366,-0.0069759996,9.81,0.0,0.0,0.0
0.02916666679084301,3.5145214,5.6344647,6.7850947,0.052028358,-0.05847773,-0.22269815,-0.0,0.0,0.30213195,-0.0035145215,-0.005634465,-0.006785095,9.81,0.0,0.0,0.0
0.03125,3.2668567,5.3873672,6.599409,0.057821583,-0.06505232,-0.23407951,-0.0,0.0,0.32194,-0.0032668568,-0.0053873677,-0.0065994095,9.81,0.0,0.0,0.0
0.03333333507180214,3.0369077,5.1489506,6.418816,0.06370931,-0.07181333,-0.24487793,-0.0,0.0,0.3417068,-0.0030369079,-0.005148951,-0.0064188163,9.81,0.0,0.0,0.0
0.03541667014360428,2.8233995,4.9192185,6.2431784,0.06966981,-0.0787449,-0.25510117,-0.0,0.0,0.36143243,-0.0028233996,-0.004919219,-0.0062431786,9.81,0.0,0.0,0.0
0.03750000521540642,2.625114,4.6981196,6.072375,0.07568375,-0.085832834,-0.26475775,-0.0,0.0,0.38111696,-0.002625114,-0.00469812,-0.006072375,9.81,0.0,0.0,0.0
0.03958334028720856,2.4408777,4.48554,5.9062724,0.08173382,-0.09306398,-0.27385598,-0.0,0.0,0.40076047,-0.0024408777,-0.00448554,-0.0059062727,9.81,0.0,0.0,0.0
0.041666675359010696,2.269587,4.281339,5.7447443,0.08780466,-0.10042638,-0.28240398,-0.0,0.0,0.42036307,-0.0022695872,-0.0042813392,-0.0057447446,9.81,0.0,0.0,0.0
0.043750010430812836,2.1102238,4.085369,5.5876746,0.09388292,-0.10790932,-0.29040986,-0.0,0.0,0.4399248,-0.002110224,-0.0040853694,-0.0055876747,9.81,0.0,0.0,0.0
0.045833345502614975,1.9618585,3.897472,5.434948,0.09995664,-0.115502745,-0.29788125,-0.0,0.0,0.4594458,-0.0019618587,-0.003897472,-0.005434948,9.81,0.0,0.0,0.0
0.047916680574417114,1.8236637,3.7174954,5.2864637,0.10601572,-0.123197734,-0.30482617,-0.0,0.0,0.47892612,-0.0018236638,-0.0037174956,-0.005286464,9.81,0.0,0.0,0.0
0.050000015646219254,1.6949034,3.5452693,5.142111,0.112051114,-0.13098572,-0.3112516,-0.0,0.0,0.49836585,-0.0016949035,-0.0035452694,-0.005142111,9.81,0.0,0.0,0.0
0.05208335071802139,1.5749357,3.3806152,5.0017867,0.11805526,-0.13885903,-0.31716487,-0.0,0.0,0.5177651,-0.0015749357,-0.0033806155,-0.005001787,9.81,0.0,0.0,0.0
0.05416668578982353,1.4631952,3.223332,4.8653846,0.12402174,-0.14681089,-0.3225722,-0.0,0.0,0.5371239,-0.0014631953,-0.003223332,-0.0048653847,9.81,0.0,0.0,0.0
0.05625002086162567,1.359182,3.0731957,4.732806,0.12994519,-0.15483485,-0.32748005,-0.0,0.0,0.55644244,-0.0013591821,-0.003073196,-0.0047328062,9.81,0.0,0.0,0.0
0.05833335593342781,1.2624338,2.9299355,4.603927,0.13582116,-0.16292515,-0.3318941,-0.0,0.0,0.57572067,-0.0012624338,-0.0029299357,-0.0046039275,9.81,0.0,0.0,0.0
0.06041669100522995,1.1725273,2.7932663,4.4786453,0.14164619,-0.17107698,-0.3358201,-0.0,0.0,0.5949587,-0.0011725273,-0.0027932664,-0.0044786455,9.81,0.0,0.0,0.0
0.06250002235174179,1.0890503,2.6628644,4.3568406,0.14741722,-0.17928538,-0.33926272,-0.0,0.0,0.6141567,-0.0010890503,-0.0026628645,-0.0043568406,9.81,0.0,0.0,0.0
0.06458335369825363,1.0116003,2.5383892,4.238394,0.15313205,-0.18754625,-0.34222734,-0.0,0.0,0.6333147,-0.0010116003,-0.0025383893,-0.004238394,9.81,0.0,0.0,0.0
0.06666668504476547,0.9397805,2.4194942,4.1231914,0.15878901,-0.195856,-0.34471792,-0.0,0.0,0.6524328,-0.0009397805,-0.0024194943,-0.0041231913,9.81,0.0,0.0,0.0
0.06875001639127731,0.87319934,2.3058317,4.0111156,0.16438669,-0.20421106,-0.34673917,-0.0,0.0,0.67151105,-0.0008731994,-0.0023058318,-0.0040111155,9.81,0.0,0.0,0.0
0.07083334773778915,0.81147647,2.1970704,3.9020574,0.16992411,-0.21260843,-0.3482946,-0.0,0.0,0.69054955,-0.0008114765,-0.0021970705,-0.0039020577,9.81,0.0,0.0,0.0
0.072916679084301,0.75424635,2.0929003,3.795911,0.17540078,-0.22104478,-0.3493887,-0.0,0.0,0.7095484,-0.0007542464,-0.0020929005,-0.0037959113,9.81,0.0,0.0,0.0
0.07500001043081284,0.7011683,1.9930476,3.6925871,0.1808163,-0.22951776,-0.35002464,-0.0,0.0,0.7285077,-0.0007011683,-0.0019930478,-0.0036925874,9.81,0.0,0.0,0.0
0.07708334177732468,0.6519261,1.8972644,3.5919898,0.18617056,-0.23802485,-0.35020554,-0.0,0.0,0.74742746,-0.00065192615,-0.0018972645,-0.0035919899,9.81,0.0,0.0,0.0
0.07916667312383652,0.6062375,1.8053446,3.4940417,0.19146389,-0.2465635,-0.3499353,-0.0,0.0,0.76630783,-0.0006062375,-0.0018053447,-0.0034940417,9.81,0.0,0.0,0.0
0.08125000447034836,0.5638486,1.7171128,3.3986657,0.1966965,-0.25513172,-0.34921625,-0.0,0.0,0.78514886,-0.00056384865,-0.0017171128,-0.003398666,9.81,0.0,0.0,0.0
0.0833333358168602,0.52453643,1.6324297,3.305798,0.20186923,-0.26372743,-0.34805188,-0.0,0.0,0.8039506,-0.0005245365,-0.0016324298,-0.0033057982,9.81,0.0,0.0,0.0
0.08541666716337204,0.4880983,1.5511843,3.2153792,0.20698273,-0.27234858,-0.34644416,-0.0,0.0,0.8227132,-0.0004880983,-0.0015511843,-0.0032153793,9.81,0.0,0.0,0.0
0.08749999850988388,0.45435035,1.4732876,3.1273518,0.21203825,-0.28099346,-0.3443963,-0.0,0.0,0.8414367,-0.00045435037,-0.0014732877,-0.0031273519,9.81,0.0,0.0,0.0
0.08958332985639572,0.42311716,1.3986728,3.041668,0.21703687,-0.2896604,-0.3419098,-0.0,0.0,0.8601212,-0.0004231172,-0.0013986729,-0.003041668,9.81,0.0,0.0,0.0
0.09166666120290756,0.39422864,1.3272865,2.958275,0.22197998,-0.29834813,-0.3389871,-0.0,0.0,0.8787668,-0.00039422864,-0.0013272866,-0.0029582751,9.81,0.0,0.0,0.0
0.0937499925494194,0.3675148,1.259089,2.8771334,0.2268692,-0.30705518,-0.33563015,-0.0,0.0,0.8973735,-0.00036751482,-0.0012590891,-0.0028771334,9.81,0.0,0.0,0.0
0.09583332389593124,0.34280366,1.1940453,2.7981932,0.23170619,-0.31577995,-0.33184028,-0.0,0.0,0.9159415,-0.0003428037,-0.0011940454,-0.0027981934,9.81,0.0,0.0,0.0
0.09791665524244308,0.31992313,1.1321275,2.7214181,0.23649298,-0.32452178,-0.3276195,-0.0,0.0,0.9344708,-0.00031992316,-0.0011321276,-0.0027214182,9.81,0.0,0.0,0.0
0.09999998658895493,0.29870275,1.0733038,2.6467595,0.24123141,-0.33327907,-0.3229689,-0.0,0.0,0.95296144,-0.00029870277,-0.0010733039,-0.0026467596,9.81,0.0,0.0,0.0
0.10208331793546677,0.27897856,1.0175414,2.5741794,0.24592365,-0.34205073,-0.31789017,-0.0,0.0,0.9714136,-0.00027897858,-0.0010175415,-0.0025741796,9.81,0.0,0.0,0.0
0.10416664928197861,0.2605959,0.9647962,2.5036283,0.25057164,-0.35083583,-0.31238407,-0.0,0.0,0.98982733,-0.0002605959,-0.0009647962,-0.0025036284,9.81,0.0,0.0,0.0
0.10624998062849045,0.24341698,0.9150171,2.435067,0.25517765,-0.3596337,-0.30645198,-0.0,0.0,1.0082027,-0.00024341699,-0.00091501715,-0.002435067,9.81,0.0,0.0,0.0
0.10833331197500229,0.22731954,0.8681343,2.3684425,0.259744,-0.36844268,-0.30009457,-0.0,0.0,1.0265398,-0.00022731954,-0.0008681344,-0.0023684427,9.81,0.0,0.0,0.0
0.11041664332151413,0.2122027,0.8240651,2.3037112,0.26427287,-0.3772622,-0.2933131,-0.0,0.0,1.0448387,-0.0002122027,-0.0008240651,-0.0023037114,9.81,0.0,0.0,0.0
0.11249997466802597,0.19798459,0.78270626,2.2408223,0.26876658,-0.3860914,-0.28610817,-0.0,0.0,1.0630994,-0.0001979846,-0.0007827063,-0.0022408224,9.81,0.0,0.0,0.0
0.11458330601453781,0.18460216,0.7439352,2.1797209,0.27322713,-0.3949296,-0.27848086,-0.0,0.0,1.0813221,-0.00018460216,-0.00074393523,-0.002179721,9.81,0.0,0.0,0.0
0.11666663736104965,0.17200792,0.7076125,2.120355,0.27765697,-0.4037755,-0.27043164,-0.0,0.0,1.0995069,-0.00017200793,-0.00070761255,-0.002120355,9.81,0.0,0.0,0.0
0.11874996870756149,0.16016656,0.6735812,2.0626707,0.28205812,-0.41262883,-0.26196137,-0.0,0.0,1.1176537,-0.00016016657,-0.0006735812,-0.002062671,9.81,0.0,0.0,0.0
0.12083330005407333,0.1490508,0.64166903,2.0066097,0.28643265,-0.4214887,-0.25307077,-0.0,0.0,1.1357628,-0.00014905081,-0.0006416691,-0.0020066097,9.81,0.0,0.0,0.0
0.12291663140058517,0.13863812,0.6116946,1.9521176,0.29078245,-0.43035436,-0.24376023,-0.0,0.0,1.1538341,-0.00013863813,-0.0006116946,-0.0019521177,9.81,0.0,0.0,0.0
0.12499996274709702,0.12890765,0.5834682,1.8991368,0.29510918,-0.43922597,-0.23403074,-0.0,0.0,1.1718677,-0.00012890766,-0.00058346824,-0.0018991369,9.81,0.0,0.0,0.0
0.12708330154418945,0.1198367,0.5568001,1.8476154,0.29941458,-0.44810236,-0.2238827,-0.0,0.0,1.1898638,-0.00011983671,-0.00055680017,-0.0018476155,9.81,0.0,0.0,0.0
0.1291666328907013,0.11140041,0.53150153,1.797496,0.30370057,-0.45698285,-0.21331692,-0.0,0.0,1.2078224,-0.00011140042,-0.00053150154,-0.001797496,9.81,0.0,0.0,0.0
0.13124996423721313,0.103571236,0.5073931,1.7487292,0.3079687,-0.46586725,-0.20233434,-0.0,0.0,1.2257437,-0.00010357124,-0.00050739315,-0.0017487293,9.81,0.0,0.0,0.0
0.13333329558372498,0.09631832,0.4843074,1.7012658,0.3122203,-0.474755,-0.19093555,-0.0,0.0,1.2436275,-9.631833e-05,-0.00048430744,-0.0017012659,9.81,0.0,0.0,0.0
0.13541662693023682,0.08961047,0.46209323,1.6550602,0.31645665,-0.4836462,-0.17912155,-0.0,0.0,1.2614741,-8.9610476e-05,-0.00046209325,-0.0016550602,9.81,0.0,0.0,0.0
0.13749995827674866,0.08341413,0.44061956,1.6100708,0.32067925,-0.4925397,-0.166893,-0.0,0.0,1.2792835,-8.341413e-05,-0.00044061957,-0.0016100709,9.81,0.0,0.0,0.0
0.1395832896232605,0.077697635,0.41977656,1.5662576,0.32488915,-0.50143594,-0.15425102,-0.0,0.0,1.2970558,-7.769764e-05,-0.00041977657,-0.0015662577,9.81,0.0,0.0,0.0
0.14166662096977234,0.07243012,0.39947873,1.5235851,0.32908773,-0.5103338,-0.1411964,-0.0,0.0,1.3147911,-7.243012e-05,-0.00039947874,-0.0015235852,9.81,0.0,0.0,0.0
0.14374995231628418,0.06758339,0.37966534,1.4820234,0.3332764,-0.5192331,-0.12773037,-0.0,0.0,1.3324895,-6.7583394e-05,-0.00037966538,-0.0014820234,9.81,0.0,0.0,0.0
0.14583328366279602,0.063130416,0.36029935,1.4415419,0.33745578,-0.52813375,-0.113853514,-0.0,0.0,1.350151,-6.313042e-05,-0.00036029937,-0.001441542,9.81,0.0,0.0,0.0
0.14791661500930786,0.059046574,0.34136838,1.402116,0.34162757,-0.5370349,-0.099566996,-0.0,0.0,1.3677757,-5.9046575e-05,-0.0003413684,-0.001402116,9.81,0.0,0.0,0.0
0.1499999463558197,0.05530762,0.32288146,1.3637211,0.3457924,-0.54593635,-0.084871806,-0.0,0.0,1.3853637,-5.530762e-05,-0.00032288147,-0.0013637212,9.81,0.0,0.0,0.0
0.15208327770233154,0.051888794,0.3048684,1.326338,0.34995145,-0.55483836,-0.06976889,-0.0,0.0,1.402915,-5.1888797e-05,-0.00030486842,-0.0013263382,9.81,0.0,0.0,0.0
0.15416660904884338,0.048764072,0.2873758,1.2899466,0.35410604,-0.5637399,-0.054258876,-0.0,0.0,1.4204297,-4.8764075e-05,-0.00028737582,-0.0012899466,9.81,0.0,0.0,0.0
0.15624994039535522,0.045906022,0.2704642,1.2545295,0.35825685,-0.5726413,-0.038342807,-0.0,0.0,1.4379079,-4.5906025e-05,-0.00027046422,-0.0012545296,9.81,0.0,0.0,0.0
0.15833327174186707,0.04328482,0.2542033,1.2200685,0.3624051,-0.5815416,-0.02202142,-0.0,0.0,1.4553498,-4.328482e-05,-0.0002542033,-0.0012200685,9.81,0.0,0.0,0.0
0.1604166030883789,0.040870585,0.23866883,1.1865494,0.36655164,-0.59044105,-0.005295351,-0.0,0.0,1.4727553,-4.0870586e-05,-0.00023866884,-0.0011865494,9.81,0.0,0.0,0.0
0.16249993443489075,0.038631454,0.22393565,1.1539524,0.3706969,-0.5993395,0.011834968,-0.0,0.0,1.4901246,-3.8631457e-05,-0.00022393565,-0.0011539524,9.81,0.0,0.0,0.0
0.1645832657814026,0.036537223,0.21007565,1.1222644,0.37484214,-0.60823655,0.029368963,-0.0,0.0,1.5074576,-3.6537225e-05,-0.00021007565,-0.0011222644,9.81,0.0,0.0,0.0
0.16666659712791443,0.034559824,0.19714992,1.0914646,0.3789886,-0.6171318,0.047305975,-0.0,0.0,1.5247545,-3.4559824e-05,-0.00019714993,-0.0010914647,9.81,0.0,0.0,0.0
0.16874992847442627,0.032674365,0.1852075,1.0615351,0.3831359,-0.62602514,0.06564556,-0.0,0.0,1.5420154,-3.2674365e-05,-0.00018520751,-0.0010615352,9.81,0.0,0.0,0.0
0.1708332598209381,0.030860402,0.17428106,1.0324583,0.3872851,-0.6349169,0.08438757,-0.0,0.0,1.5592405,-3.0860403e-05,-0.00017428107,-0.0010324584,9.81,0.0,0.0,0.0
0.17291659116744995,0.029102087,0.16438316,1.0042121,0.39143762,-0.6438061,0.103531376,-0.0,0.0,1.5764295,-2.9102088e-05,-0.00016438316,-0.0010042122,9.81,0.0,0.0,0.0
0.1749999225139618,0.027388945,0.15550582,0.97677493,0.39559203,-0.6526934,0.123076946,-0.0,0.0,1.5935827,-2.7388947e-05,-0.00015550583,-0.000976775,9.81,0.0,0.0,0.0
0.17708325386047363,0.02571489,0.14761984,0.95012695,0.3997505,-0.6615785,0.14302367,-0.0,0.0,1.6107002,-2.571489e-05,-0.00014761985,-0.00095012697,9.81,0.0,0.0,0.0
0.17916658520698547,0.02407834,0.14067356,0.9242417,0.4039123,-0.6704609,0.16337147,-0.0,0.0,1.6277821,-2.4078341e-05,-0.00014067357,-0.0009242418,9.81,0.0,0.0,0.0
0.18124991655349731,0.022481605,0.1345962,0.89909685,0.40807828,-0.6793409,0.18411987,-0.0,0.0,1.6448284,-2.2481607e-05,-0.00013459621,-0.0008990969,9.81,0.0,0.0,0.0
0.18333324790000916,0.020929508,0.1292983,0.8746664,0.41224816,-0.68821836,0.20526865,-0.0,0.0,1.6618392,-2.0929509e-05,-0.0001292983,-0.00087466644,9.81,0.0,0.0,0.0
0.185416579246521,0.01942914,0.1246752,0.85092556,0.41642165,-0.6970935,0.22681719,-0.0,0.0,1.6788145,-1.942914e-05,-0.0001246752,-0.00085092563,9.81,0.0,0.0,0.0
0.18749991059303284,0.01798857,0.12061126,0.8278491,0.42059985,-0.7059657,0.24876513,-0.0,0.0,1.6957545,-1.798857e-05,-0.000120611265,-0.00082784914,9.81,0.0,0.0,0.0
0.18958324193954468,0.016616195,0.11698251,0.8054122,0.42478332,-0.7148349,0.27111176,-0.0,0.0,1.7126592,-1.6616195e-05,-0.00011698252,-0.0008054122,9.81,0.0,0.0,0.0
0.19166657328605652,0.015319966,0.11366206,0.7835891,0.4289721,-0.72370154,0.29385662,-0.0,0.0,1.7295287,-1.5319967e-05,-0.00011366206,-0.00078358914,9.81,0.0,0.0,0.0
0.19374990463256836,0.014106646,0.110525355,0.762359,0.43316498,-0.7325653,0.31699917,-0.0,0.0,1.7463629,-1.4106647e-05,-0.00011052536,-0.00076235906,9.81,0.0,0.0,0.0
0.1958332359790802,0.0129821,0.107452594,0.7416957,0.4373637,-0.74142635,0.34053832,-0.0,0.0,1.7631621,-1.2982101e-05,-0.0001074526,-0.00074169575,9.81,0.0,0.0,0.0
0.19791656732559204,0.011949785,0.10433547,0.72158056,0.4415692,-0.7502839,0.36447325,-0.0,0.0,1.7799264,-1.1949785e-05,-0.00010433548,-0.0007215806,9.81,0.0,0.0,0.0
0.19999989867210388,0.011012115,0.101079494,0.70199317,0.44578072,-0.7591386,0.3888034,-0.0,0.0,1.7966558,-1.10121155e-05,-0.000101079495,-0.0007019932,9.81,0.0,0.0,0.0
0.20208323001861572,0.010169454,0.09760729,0.6829145,0.4499994,-0.7679897,0.41352713,-0.0,0.0,1.8133502,-1.0169454e-05,-9.76073e-05,-0.0006829145,9.81,0.0,0.0,0.0
0.20416656136512756,0.009420432,0.093861744,0.6643304,0.4542256,-0.7768376,0.43864372,-0.0,0.0,1.8300099,-9.420432e-06,-9.3861745e-05,-0.00066433044,9.81,0.0,0.0,0.0
0.2062498927116394,0.008762728,0.08980709,0.6462263,0.45846084,-0.7856818,0.46415213,-0.0,0.0,1.8466349,-8.762729e-06,-8.9807094e-05,-0.00064622634,9.81,0.0,0.0,0.0
0.20833322405815125,0.008192759,0.085429825,0.6285903,0.4627053,-0.79452235,0.49005094,-0.0,0.0,1.8632252,-8.192759e-06,-8.542983e-05,-0.0006285903,9.81,0.0,0.0,0.0
0.21041655540466309,0.007705666,0.080738865,0.6114102,0.46696052,-0.80335873,0.51633894,-0.0,0.0,1.879781,-7.705667e-06,-8.073887e-05,-0.00061141024,9.81,0.0,0.0,0.0
0.21249988675117493,0.0072956756,0.07576463,0.5946756,0.4712266,-0.8121909,0.54301536,-0.0,0.0,1.8963023,-7.295676e-06,-7.5764634e-05,-0.00059467566,9.81,0.0,0.0,0.0
0.21458321809768677,0.0069557577,0.070557736,0.5783798,0.47550339,-0.8210192,0.57007873,-0.0,0.0,1.9127892,-6.955758e-06,-7.055774e-05,-0.00057837984,9.81,0.0,0.0,0.0
0.2166665494441986,0.0066778883,0.065185875,0.5625132,0.47979313,-0.82984334,0.5975283,-0.0,0.0,1.9292418,-6.6778885e-06,-6.518588e-05,-0.0005625132,9.81,0.0,0.0,0.0
0.21874988079071045,0.006452486,0.059731316,0.54706717,0.484095,-0.83866364,0.625363,-0.0,0.0,1.94566,-6.452486e-06,-5.973132e-05,-0.0005470672,9.81,0.0,0.0,0.0
0.2208332121372223,0.006269075,0.054287165,0.53203666,0.48840964,-0.8474801,0.6535821,-0.0,0.0,1.962044,-6.269075e-06,-5.4287168e-05,-0.0005320367,9.81,0.0,0.0,0.0
0.22291654348373413,0.0061163865,0.048953265,0.51741487,0.49273744,-0.85629225,0.6821846,-0.0,0.0,1.9783939,-6.116387e-06,-4.895327e-05,-0.0005174149,9.81,0.0,0.0,0.0
0.22499987483024597,0.005982872,0.043830898,0.5031939,0.49708,-0.86509967,0.7111698,-0.0,0.0,1.9947097,-5.9828726e-06,-4.38309e-05,-0.00050319394,9.81,0.0,0.0,0.0
0.2270832061767578,0.0058570243,0.039019097,0.48936626,0.50143653,-0.8739026,0.7405373,-0.0,0.0,2.0109916,-5.8570245e-06,-3.9019098e-05,-0.0004893663,9.81,0.0,0.0,0.0
0.22916653752326965,0.0057281926,0.03460942,0.475923,0.5058061,-0.88270116,0.7702862,-0.0,0.0,2.0272396,-5.7281927e-06,-3.460942e-05,-0.00047592304,9.81,0.0,0.0,0.0
0.2312498688697815,0.0055872537,0.030682549,0.46285978,0.51018745,-0.89149606,0.8004163,-0.0,0.0,2.0434537,-5.587254e-06,-3.068255e-05,-0.0004628598,9.81,0.0,0.0,0.0
0.23333320021629333,0.0054267384,0.027303718,0.45016623,0.5145805,-0.90028626,0.8309271,-0.0,0.0,2.059634,-5.426739e-06,-2.7303719e-05,-0.00045016623,9.81,0.0,0.0,0.0
0.23541653156280518,0.005241666,0.02452059,0.4378368,0.5189846,-0.90907305,0.8618184,-0.0,0.0,2.0757806,-5.2416663e-06,-2.4520592e-05,-0.0004378368,9.81,0.0,0.0,0.0
0.23749986290931702,0.005028352,0.022360042,0.42586023,0.5233993,-0.91785574,0.89308983,-0.0,0.0,2.0918937,-5.0283525e-06,-2.2360044e-05,-0.00042586026,9.81,0.0,0.0,0.0
0.23958319425582886,0.0047857724,0.020828012,0.41422772,0.52782375,-0.9266335,0.92474073,-0.0,0.0,2.107973,-4.7857725e-06,-2.0828013e-05,-0.00041422775,9.81,0.0,0.0,0.0
0.2416665256023407,0.0045146197,0.019908603,0.40293294,0.53225523,-0.9354084,0.95677173,-0.0,0.0,2.124019,-4.51462e-06,-1.9908604e-05,-0.00040293296,9.81,0.0,0.0,0.0
0.24374985694885254,0.0042174757,0.019564245,0.39196366,0.5366949,-0.94417936,0.9891824,-0.0,0.0,2.1400313,-4.2174756e-06,-1.9564246e-05,-0.00039196367,9.81,0.0,0.0,0.0
0.24583318829536438,0.0038982406,0.01973762,0.38131028,0.54114103,-0.9529464,1.0219721,-0.0,0.0,2.1560104,-3.8982407e-06,-1.9737621e-05,-0.0003813103,9.81,0.0,0.0,0.0
0.24791651964187622,0.0035623088,0.020353675,0.37096155,0.5455909,-0.96171004,1.0551401,-0.0,0.0,2.1719563,-3.562309e-06,-2.0353677e-05,-0.00037096156,9.81,0.0,0.0,0.0
0.24999985098838806,0.0032160506,0.021322092,0.36090735,0.55004525,-0.97047037,1.0886872,-0.0,0.0,2.1878688,-3.2160508e-06,-2.1322094e-05,-0.00036090738,9.81,0.0,0.0,0.0
0.2520831823348999,0.0028670803,0.022541791,0.3511354,0.55450255,-0.9792276,1.1226121,-0.0,0.0,2.2037482,-2.8670804e-06,-2.2541792e-05,-0.00035113542,9.81,0.0,0.0,0.0
0.25416651368141174,0.0025229491,0.02390405,0.34163582,0.5589626,-0.98798203,1.1569145,-0.0,0.0,2.2195945,-2.5229492e-06,-2.3904051e-05,-0.00034163584,9.81,0.0,0.0,0.0
0.2562498450279236,0.002191238,0.025297076,0.3323962,0.56342566,-0.9967324,1.1915934,-0.0,0.0,2.2354078,-2.1912383e-06,-2.5297077e-05,-0.00033239622,9.81,0.0,0.0,0.0
0.2583331763744354,0.0018795729,0.026610898,0.3234051,0.5678911,-1.0054798,1.2266483,-0.0,0.0,2.2511883,-1.879573e-06,-2.66109e-05,-0.0003234051,9.81,0.0,0.0,0.0
0.26041650772094727,0.0015943721,0.027741492,0.31465164,0.5723592,-1.0142245,1.2620779,-0.0,0.0,2.2669358,-1.5943722e-06,-2.7741493e-05,-0.00031465164,9.81,0.0,0.0,0.0
0.2624998390674591,0.0013413653,0.02859545,0.30612832,0.5768323,-1.0229657,1.2978816,-0.0,0.0,2.2826505,-1.3413653e-06,-2.859545e-05,-0.00030612835,9.81,0.0,0.0,0.0
0.26458317041397095,0.001124844,0.029093247,0.2978245,0.5813087,-1.031703,1.3340577,-0.0,0.0,2.2983325,-1.1248441e-06,-2.9093248e-05,-0.0002978245,9.81,0.0,0.0,0.0
0.2666665017604828,0.0009476654,0.02917274,0.28973433,0.5857926,-1.0404366,1.370606,-0.0,0.0,2.3139818,-9.4766546e-07,-2.9172743e-05,-0.00028973434,9.81,0.0,0.0,0.0
0.26874983310699463,0.00081130676,0.028790861,0.28185102,0.59028435,-1.049167,1.4075246,-0.0,0.0,2.3295984,-8.113068e-07,-2.8790862e-05,-0.00028185104,9.81,0.0,0.0,0.0
0.27083316445350647,0.0007159393,0.027926227,0.27416852,0.5947825,-1.057894,1.4448115,-0.0,0.0,2.3451827,-7.1593934e-07,-2.7926228e-05,-0.00027416853,9.81,0.0,0.0,0.0
0.2729164958000183,0.0006605275,0.026578851,0.26668325,0.59929234,-1.0666175,1.4824669,-0.0,0.0,2.3607345,-6.605275e-07,-2.6578853e-05,-0.00026668326,9.81,0.0,0.0,0.0
0.27499982714653015,0.00064277835,0.024770688,0.2593921,0.60381246,-1.0753367,1.5204884,-0.0,0.0,2.3762538,-6.427784e-07,-2.477069e-05,-0.00025939214,9.81,0.0,0.0,0.0
0.277083158493042,0.00065989234,0.022543905,0.25229004,0.6083468,-1.0840524,1.5588751,-0.0,0.0,2.3917408,-6.5989235e-07,-2.2543907e-05,-0.00025229005,9.81,0.0,0.0,0.0
0.27916648983955383,0.00070751645,0.019960014,0.2453779,0.61289614,-1.092764,1.5976256,-0.0,0.0,2.4071956,-7.075165e-07,-1.9960014e-05,-0.00024537792,9.81,0.0,0.0,0.0
0.2812498211860657,0.00078043714,0.01709627,0.23864906,0.6174614,-1.1014721,1.6367391,-0.0,0.0,2.4226182,-7.804372e-07,-1.709627e-05,-0.00023864907,9.81,0.0,0.0,0.0
0.2833331525325775,0.00087231584,0.014043339,0.2321007,0.62204194,-1.1101755,1.6762142,-0.0,0.0,2.4380085,-8.7231587e-07,-1.4043339e-05,-0.0002321007,9.81,0.0,0.0,0.0
0.28541648387908936,0.0009765476,0.010901222,0.22573213,0.6266406,-1.1188755,1.7160505,-0.0,0.0,2.4533668,-9.765477e-07,-1.0901223e-05,-0.00022573215,9.81,0.0,0.0,0.0
0.2874998152256012,0.0010855198,0.0077747125,0.219537,0.63125646,-1.1275713,1.7562464,-0.0,0.0,2.468693,-1.0855199e-06,-7.774713e-06,-0.00021953702,9.81,0.0,0.0,0.0
0.28958314657211304,0.0011920333,0.0047697295,0.21351156,0.63588864,-1.136263,1.7968013,-0.0,0.0,2.4839873,-1.1920333e-06,-4.7697295e-06,-0.00021351156,9.81,0.0,0.0,0.0
0.2916664779186249,0.0012888145,0.0019880552,0.20765245,0.64053905,-1.1449506,1.8377156,-0.0,0.0,2.49925,-1.2888146e-06,-1.9880554e-06,-0.00020765245,9.81,0.0,0.0,0.0
0.2937498092651367,0.0013694298,-0.0004768204,0.20195636,0.6452047,-1.153634,1.8789876,-0.0,0.0,2.5144806,-1.3694298e-06,4.7682042e-07,-0.00020195637,9.81,0.0,0.0,0.0
0.29583314061164856,0.0014285557,-0.0025436133,0.19641715,0.64988476,-1.162315,1.9206184,-0.0,0.0,2.5296795,-1.4285557e-06,2.5436134e-06,-0.00019641717,9.81,0.0,0.0,0.0
0.2979164719581604,0.0014623925,-0.0041461345,0.19103333,0.6545775,-1.1709913,1.9626061,-0.0,0.0,2.5448468,-1.4623926e-06,4.146135e-06,-0.00019103334,9.81,0.0,0.0,0.0
0.29999980330467224,0.0014679991,-0.0052370187,0.185802,0.65928006,-1.1796649,2.0049512,-0.0,0.0,2.5599825,-1.4679991e-06,5.2370187e-06,-0.00018580201,9.81,0.0,0.0,0.0
0.3020831346511841,0.001443781,-0.005789183,0.18072018,0.66399133,-1.188335,2.0476544,-0.0,0.0,2.5750868,-1.443781e-06,5.7891834e-06,-0.00018072019,9.81,0.0,0.0,0.0
0.3041664659976959,0.0013897158,-0.005796494,0.1757853,0.66870886,-1.1970022,2.0907154,-0.0,0.0,2.5901597,-1.3897159e-06,5.7964944e-06,-0.00017578532,9.81,0.0,0.0,0.0
0.30624979734420776,0.0013072472,-0.005274346,0.17099524,0.6734289,-1.205666,2.1341326,-0.0,0.0,2.605201,-1.3072473e-06,5.274346e-06,-0.00017099525,9.81,0.0,0.0,0.0
0.3083331286907196,0.00119837,-0.0042592622,0.16634479,0.67814964,-1.2143279,2.1779077,-0.0,0.0,2.6202111,-1.1983701e-06,4.2592624e-06,-0.0001663448,9.81,0.0,0.0,0.0
0.31041646003723145,0.0010662358,-0.002807347,0.16183254,0.682869,-1.2229878,2.2220395,-0.0,0.0,2.6351898,-1.0662359e-06,2.8073473e-06,-0.00016183255,9.81,0.0,0.0,0.0
0.3124997913837433,0.0009149965,-0.0009918083,0.15745425,0.68758714,-1.2316444,2.2665288,-0.0,0.0,2.6501372,-9.149965e-07,9.918083e-07,-0.00015745425,9.81,0.0,0.0,0.0
0.3145831227302551,0.0007496644,0.0010997877,0.15320551,0.69230086,-1.240299,2.3113744,-0.0,0.0,2.6650536,-7.496644e-07,-1.0997877e-06,-0.00015320552,9.81,0.0,0.0,0.0
0.31666645407676697,0.00057622604,0.0033691768,0.14907877,0.69700646,-1.2489517,2.3565755,-0.0,0.0,2.679939,-5.7622606e-07,-3.369177e-06,-0.00014907878,9.81,0.0,0.0,0.0
0.3187497854232788,0.0004006857,0.005711304,0.14506802,0.7017071,-1.2576019,2.402132,-0.0,0.0,2.6947932,-4.0068574e-07,-5.7113043e-06,-0.00014506803,9.81,0.0,0.0,0.0
0.32083311676979065,0.00022959057,0.008018512,0.14116836,0.7063998,-1.2662499,2.4480426,-0.0,0.0,2.7096167,-2.2959058e-07,-8.018513e-06,-0.00014116836,9.81,0.0,0.0,0.0
0.3229164481163025,6.929599e-05,0.010185348,0.1373736,0.71108645,-1.2748969,2.4943087,-0.0,0.0,2.724409,-6.929599e-08,-1.0185348e-05,-0.0001373736,9.81,0.0,0.0,0.0
0.32499977946281433,-7.475633e-05,0.012112526,0.13367407,0.7157674,-1.2835411,2.5409265,-0.0,0.0,2.7391708,7.4756336e-08,-1.2112527e-05,-0.00013367408,9.81,0.0,0.0,0.0
0.32708311080932617,-0.00019756425,0.013711808,0.13006791,0.7204442,-1.2921834,2.5878968,-0.0,0.0,2.7539017,1.9756426e-07,-1.3711809e-05,-0.00013006791,9.81,0.0,0.0,0.0
0.329166442155838,-0.00029535778,0.014908679,0.12654877,0.7251175,-1.3008244,2.6352172,-0.0,0.0,2.768602,2.9535778e-07,-1.490868e-05,-0.00012654877,9.81,0.0,0.0,0.0
0.33124977350234985,-0.00036576763,0.01564633,0.123115614,0.7297914,-1.3094628,2.6828878,-0.0,0.0,2.7832716,3.6576765e-07,-1.564633e-05,-0.00012311562,9.81,0.0,0.0,0.0
0.3333331048488617,-0.00040696748,0.015887056,0.11976834,0.73446983,-1.3180984,2.7309055,-0.0,0.0,2.7979105,4.069675e-07,-1.5887057e-05,-0.000119768345,9.81,0.0,0.0,0.0
0.33541643619537354,-0.00041858386,0.015613849,0.116504446,0.7391521,-1.3267319,2.7792697,-0.0,0.0,2.812519,4.1858388e-07,-1.561385e-05,-0.00011650445,9.81,0.0,0.0,0.0
0.3374997675418854,-0.00040106382,0.014831274,0.11332272,0.7438438,-1.3353624,2.8279788,-0.0,0.0,2.8270972,4.0106383e-07,-1.4831275e-05,-0.00011332273,9.81,0.0,0.0,0.0
0.3395830988883972,-0.00035613962,0.013565183,0.11022686,0.7485467,-1.3439904,2.8770313,-0.0,0.0,2.841645,3.5613962e-07,-1.35651835e-05,-0.000110226865,9.81,0.0,0.0,0.0
0.34166643023490906,-0.00028629415,0.011861149,0.10721439,0.75326276,-1.3526162,2.9264252,-0.0,0.0,2.8561623,2.8629415e-07,-1.186115e-05,-0.00010721439,9.81,0.0,0.0,0.0
0.3437497615814209,-0.00019488018,0.009783226,0.104288146,0.7579981,-1.3612385,2.9761615,-0.0,0.0,2.8706496,1.9488019e-07,-9.783226e-06,-0.00010428815,9.81,0.0,0.0,0.0
0.34583309292793274,-8.603837e-05,0.007411019,0.10144481,0.7627515,-1.3698577,3.0262372,-0.0,0.0,2.8851066,8.6038376e-08,-7.4110194e-06,-0.00010144481,9.81,0.0,0.0,0.0
0.3479164242744446,3.5227276e-05,0.0048365723,0.09868406,0.7675242,-1.3784736,3.0766518,-0.0,0.0,2.8995335,-3.5227277e-08,-4.8365728e-06,-9.868406e-05,9.81,0.0,0.0,0.0
0.3499997556209564,0.00016347226,0.0021605408,0.096002795,0.77231926,-1.3870865,3.127403,-0.0,0.0,2.9139304,-1.6347227e-07,-2.1605408e-06,-9.60028e-05,9.81,0.0,0.0,0.0
0.35208308696746826,0.0002926523,-0.00051182136,0.093397185,0.77713567,-1.395696,3.178491,-0.0,0.0,2.9282973,-2.926523e-07,5.118214e-07,-9.339719e-05,9.81,0.0,0.0,0.0
0.3541664183139801,0.0004164977,-0.003075366,0.090862155,0.7819726,-1.4043027,3.2299163,-0.0,0.0,2.942634,-4.1649773e-07,3.075366e-06,-9.086216e-05,9.81,0.0,0.0,0.0
0.35624974966049194,0.000529469,-0.0054291254,0.088393934,0.78683126,-1.4129074,3.281678,-0.0,0.0,2.9569411,-5.29469e-07,5.429126e-06,-8.8393936e-05,9.81,0.0,0.0,0.0
0.3583330810070038,0.0006264299,-0.0074806027,0.08599068,0.79170674,-1.4215093,3.3337736,-0.0,0.0,2.9712183,-6.2642994e-07,7.480603e-06,-8.599069e-05,9.81,0.0,0.0,0.0
0.3604164123535156,0.0007032892,-0.00914982,0.08364886,0.7965975,-1.4301074,3.386205,-0.0,0.0,2.9854658,-7.0328923e-07,9.1498205e-06,-8.364886e-05,9.81,0.0,0.0,0.0
0.36249974370002747,0.0007565473,-0.010372542,0.08136385,0.80150163,-1.4387035,3.4389713,-0.0,0.0,2.9996836,-7.5654737e-07,1.0372542e-05,-8.1363854e-05,9.81,0.0,0.0,0.0
0.3645830750465393,0.0007844479,-0.011102423,0.07914105,0.8064165,-1.4472977,3.492075,-0.0,0.0,3.0138717,-7.8444793e-07,1.1102424e-05,-7.914106e-05,9.81,0.0,0.0,0.0
0.36666640639305115,0.0007857904,-0.011313494,0.07697674,0.8113364,-1.4558892,3.5455122,-0.0,0.0,3.0280302,-7.857904e-07,1.1313495e-05,-7.697674e-05,9.81,0.0,0.0,0.0
0.368749737739563,0.00076082535,-0.011000463,0.0748742,0.81625706,-1.4644781,3.5992844,-0.0,0.0,3.0421593,-7.608254e-07,1.1000463e-05,-7.48742e-05,9.81,0.0,0.0,0.0
0.37083306908607483,0.0007102322,-0.0101799425,0.07283455,0.82117856,-1.473067,3.6533942,-0.0,0.0,3.056259,-7.102322e-07,1.0179943e-05,-7.2834555e-05,9.81,0.0,0.0,0.0
0.37291640043258667,0.0006359271,-0.008887974,0.070861675,0.82609254,-1.4816536,3.7078376,-0.0,0.0,3.0703292,-6.359271e-07,8.887974e-06,-7.086168e-05,9.81,0.0,0.0,0.0
0.3749997317790985,0.00054081716,-0.007180346,0.06895623,0.83099645,-1.4902391,3.7626164,-0.0,0.0,3.0843701,-5.4081715e-07,7.1803465e-06,-6.895624e-05,9.81,0.0,0.0,0.0
0.37708306312561035,0.0004281439,-0.0051298086,0.06711656,0.8358878,-1.4988234,3.8177328,-0.0,0.0,3.0983818,-4.2814392e-07,5.129809e-06,-6.711656e-05,9.81,0.0,0.0,0.0
0.3791663944721222,0.00030221464,-0.0028228723,0.06534105,0.8407656,-1.5074061,3.8731833,-0.0,0.0,3.1123643,-3.0221466e-07,2.8228724e-06,-6.534105e-05,9.81,0.0,0.0,0.0
0.38124972581863403,0.0001685042,-0.0003563268,0.063624024,0.8456254,-1.5159895,3.9289699,-0.0,0.0,3.1263177,-1.685042e-07,3.5632684e-07,-6.362403e-05,9.81,0.0,0.0,0.0
0.3833330571651459,3.2044016e-05,0.0021662745,0.0619604,0.8504662,-1.5245715,3.985088,-0.0,0.0,3.140242,-3.2044017e-08,-2.1662745e-06,-6.19604e-05,9.81,0.0,0.0,0.0
0.3854163885116577,-0.00010153791,0.004638881,0.060342975,0.8552929,-1.5331528,4.0415416,-0.0,0.0,3.1541374,1.01537914e-07,-4.6388814e-06,-6.0342976e-05,9.81,0.0,0.0,0.0
0.38749971985816956,-0.0002265065,0.0069585536,0.058765765,0.8600981,-1.5417343,4.0983267,-0.0,0.0,3.1680038,2.2650651e-07,-6.958554e-06,-5.8765767e-05,9.81,0.0,0.0,0.0
0.3895830512046814,-0.00033794763,0.009028074,0.057223283,0.86489,-1.5503157,4.155446,-0.0,0.0,3.1818414,3.3794765e-07,-9.028075e-06,-5.7223286e-05,9.81,0.0,0.0,0.0
0.39166638255119324,-0.0004312992,0.010760897,0.055707917,0.86967057,-1.5588951,4.2128925,-0.0,0.0,3.19565,4.3129924e-07,-1.0760898e-05,-5.570792e-05,9.81,0.0,0.0,0.0
0.3937497138977051,-0.0005033924,0.012085065,0.054221094,0.8744391,-1.5674754,4.2706704,-0.0,0.0,3.20943,5.0339247e-07,-1.20850655e-05,-5.4221095e-05,9.81,0.0,0.0,0.0
0.3958330452442169,-0.000551736,0.012945205,0.05276086,0.879204,-1.5760539,4.3287773,-0.0,0.0,3.2231812,5.5173604e-07,-1.29452055e-05,-5.2760864e-05,9.81,0.0,0.0,0.0
0.39791637659072876,-0.0005745706,0.013305187,0.05132962,0.8839681,-1.58463,4.387208,-0.0,0.0,3.236904,5.7457066e-07,-1.3305188e-05,-5.132962e-05,9.81,0.0,0.0,0.0
0.3999997079372406,-0.0005720551,0.013149228,0.049930114,0.8887363,-1.5932056,4.4459667,-0.0,0.0,3.250598,5.720551e-07,-1.3149229e-05,-4.9930117e-05,9.81,0.0,0.0,0.0
0.40208303928375244,-0.000544284,0.012482666,0.04856763,0.8935108,-1.6017787,4.505046,-0.0,0.0,3.2642634,5.4428403e-07,-1.2482667e-05,-4.8567632e-05,9.81,0.0,0.0,0.0
0.4041663706302643,-0.0004925006,0.011331727,0.047248602,0.89829797,-1.6103504,4.564447,-0.0,0.0,3.2779005,4.9250065e-07,-1.1331727e-05,-4.7248603e-05,9.81,0.0,0.0,0.0
0.4062497019767761,-0.00041876594,0.009742154,0.045973808,0.9031034,-1.618921,4.6241713,-0.0,0.0,3.291509,4.1876595e-07,-9.742154e-06,-4.597381e-05,9.81,0.0,0.0,0.0
0.40833303332328796,-0.0003264537,0.007777536,0.04474874,0.9079267,-1.6274889,4.684211,-0.0,0.0,3.305089,3.2645372e-07,-7.777536e-06,-4.474874e-05,9.81,0.0,0.0,0.0
0.4104163646697998,-0.00021884823,0.0055170674,0.04357171,0.912779,-1.6360528,4.74457,-0.0,0.0,3.318641,2.1884824e-07,-5.5170676e-06,-4.3571712e-05,9.81,0.0,0.0,0.0
0.41249969601631165,-0.000100172125,0.0030520153,0.042442165,0.91765535,-1.6446155,4.805247,-0.0,0.0,3.3321645,1.0017213e-07,-3.0520155e-06,-4.2442167e-05,9.81,0.0,0.0,0.0
0.4145830273628235,2.3928471e-05,0.0004820195,0.041355513,0.9225605,-1.6531757,4.866237,-0.0,0.0,3.34566,-2.3928472e-08,-4.820195e-07,-4.1355514e-05,9.81,0.0,0.0,0.0
0.4166663587093353,0.00014864886,-0.0020883437,0.040302973,0.92749536,-1.6617329,4.9275436,-0.0,0.0,3.3591273,-1.4864887e-07,2.0883438e-06,-4.0302974e-05,9.81,0.0,0.0,0.0
0.41874969005584717,0.00026801042,-0.0045555355,0.03927974,0.9324566,-1.6702871,4.989165,-0.0,0.0,3.3725667,-2.6801044e-07,4.5555357e-06,-3.927974e-05,9.81,0.0,0.0,0.0
0.420833021402359,0.00037713093,-0.0068192612,0.03827597,0.93744504,-1.6788397,5.0511,-0.0,0.0,3.385978,-3.7713096e-07,6.8192617e-06,-3.827597e-05,9.81,0.0,0.0,0.0
0.42291635274887085,0.0004713058,-0.008788278,0.03728772,0.9424547,-1.6873901,5.113347,-0.0,0.0,3.3993614,-4.713058e-07,8.788279e-06,-3.7287722e-05,9.81,0.0,0.0,0.0
0.4249996840953827,0.000546949,-0.010382984,0.036308005,0.947486,-1.6959393,5.17591,-0.0,0.0,3.4127169,-5.46949e-07,1.0382984e-05,-3.6308007e-05,9.81,0.0,0.0,0.0
0.42708301544189453,0.00060083205,-0.011539848,0.035339415,0.95253026,-1.7044857,5.238786,-0.0,0.0,3.4260445,-6.008321e-07,1.1539848e-05,-3.5339417e-05,9.81,0.0,0.0,0.0
0.42916634678840637,0.0006314677,-0.012212511,0.034382228,0.9575865,-1.7130301,5.301978,-0.0,0.0,3.4393444,-6.314677e-07,1.2212512e-05,-3.438223e-05,9.81,0.0,0.0,0.0
0.4312496781349182,0.00063749915,-0.012375124,0.033443496,0.9626472,-1.7215743,5.3654823,-0.0,0.0,3.4526167,-6.3749917e-07,1.2375124e-05,-3.34435e-05,9.81,0.0,0.0,0.0
0.43333300948143005,0.0006189151,-0.0120220715,0.032530423,0.96770704,-1.7301178,5.4293036,-0.0,0.0,3.4658613,-6.189151e-07,1.2022072e-05,-3.2530425e-05,9.81,0.0,0.0,0.0
0.4354163408279419,0.00057662115,-0.011168027,0.031649694,0.97275746,-1.7386584,5.4934363,-0.0,0.0,3.4790783,-5.766212e-07,1.1168027e-05,-3.1649695e-05,9.81,0.0,0.0,0.0
0.43749967217445374,0.0005122246,-0.009848473,0.030810218,0.97779757,-1.7471995,5.5578856,-0.0,0.0,3.4922676,-5.1222463e-07,9.848473e-06,-3.081022e-05,9.81,0.0,0.0,0.0
0.4395830035209656,0.00042836275,-0.008117334,0.030015772,0.9828203,-1.7557428,5.622652,-0.0,0.0,3.5054295,-4.2836277e-07,8.117335e-06,-3.0015774e-05,9.81,0.0,0.0,0.0
0.4416663348674774,0.0003277599,-0.0060457354,0.029269071,0.98782086,-1.7642846,5.6877317,-0.0,0.0,3.518564,-3.277599e-07,6.0457355e-06,-2.9269073e-05,9.81,0.0,0.0,0.0
0.44374966621398926,0.00021454273,-0.003718643,0.028568817,0.99279493,-1.7728262,5.7531266,-0.0,0.0,3.531671,-2.1454274e-07,3.7186433e-06,-2.8568818e-05,9.81,0.0,0.0,0.0
0.4458329975605011,9.340863e-05,-0.0012314818,0.027908547,0.99774265,-1.7813685,5.818838,-0.0,0.0,3.544751,-9.340863e-08,1.2314819e-06,-2.7908549e-05,9.81,0.0,0.0,0.0
0.44791632890701294,-3.0872645e-05,0.0013141548,0.027283013,1.0026605,-1.7899108,5.884865,-0.0,0.0,3.5578036,3.0872645e-08,-1.3141549e-06,-2.7283015e-05,9.81,0.0,0.0,0.0
0.4499996602535248,-0.00015273178,0.0038133715,0.0266773,1.0075488,-1.798456,5.951203,-0.0,0.0,3.5708292,1.5273179e-07,-3.8133717e-06,-2.66773e-05,9.81,0.0,0.0,0.0
0.4520829916000366,-0.00026725652,0.006163909,0.026080854,1.0124114,-1.8069994,6.0178537,-0.0,0.0,3.5838275,2.6725652e-07,-6.1639093e-06,-2.6080856e-05,9.81,0.0,0.0,0.0
0.45416632294654846,-0.00036969455,0.008269527,0.0254817,1.0172431,-1.8155466,6.084815,-0.0,0.0,3.5967987,3.6969456e-07,-8.269528e-06,-2.5481702e-05,9.81,0.0,0.0,0.0
0.4562496542930603,-0.0004553541,0.010044854,0.024874896,1.0220551,-1.8240936,6.1520896,-0.0,0.0,3.6097429,4.5535413e-07,-1.0044854e-05,-2.4874897e-05,9.81,0.0,0.0,0.0
0.45833298563957214,-0.0005212608,0.011417737,0.024257772,1.0268483,-1.8326395,6.219674,-0.0,0.0,3.6226602,5.212608e-07,-1.1417737e-05,-2.4257773e-05,9.81,0.0,0.0,0.0
0.460416316986084,-0.0005650087,0.012332754,0.023628138,1.0316299,-1.8411872,6.287564,-0.0,0.0,3.6355505,5.6500875e-07,-1.23327545e-05,-2.362814e-05,9.81,0.0,0.0,0.0
0.4624996483325958,-0.00058547314,0.012753027,0.02299602,1.0364085,-1.8497325,6.3557625,-0.0,0.0,3.648414,5.854732e-07,-1.27530275e-05,-2.299602e-05,9.81,0.0,0.0,0.0
0.46458297967910767,-0.0005818743,0.012661595,0.022368373,1.0411906,-1.8582768,6.424264,-0.0,0.0,3.6612506,5.818743e-07,-1.2661595e-05,-2.2368375e-05,9.81,0.0,0.0,0.0
0.4666663110256195,-0.0005548743,0.012062127,0.021757899,1.0459801,-1.8668189,6.4930677,-0.0,0.0,3.6740606,5.548743e-07,-1.2062127e-05,-2.17579e-05,9.81,0.0,0.0,0.0
0.46874964237213135,-0.00050542457,0.010978544,0.02118041,1.0507828,-1.8753606,6.562175,-0.0,0.0,3.6868439,5.0542457e-07,-1.0978545e-05,-2.118041e-05,9.81,0.0,0.0,0.0
0.4708329737186432,-0.0004351302,0.0094545055,0.02064316,1.0556123,-1.8839016,6.6315827,-0.0,0.0,3.6996005,4.3513023e-07,-9.454506e-06,-2.0643161e-05,9.81,0.0,0.0,0.0
0.47291630506515503,-0.00034681964,0.0075514717,0.020155922,1.0604664,-1.8924395,6.7012835,-0.0,0.0,3.7123303,3.4681966e-07,-7.551472e-06,-2.0155923e-05,9.81,0.0,0.0,0.0
0.47499963641166687,-0.00024366658,0.0053463005,0.019716607,1.0653496,-1.9009765,6.7712855,-0.0,0.0,3.7250338,2.436666e-07,-5.346301e-06,-1.9716608e-05,9.81,0.0,0.0,0.0
0.4770829677581787,-0.00013003196,0.0029283415,0.019324869,1.0702693,-1.9095099,6.8415823,-0.0,0.0,3.7377107,1.3003196e-07,-2.9283417e-06,-1.932487e-05,9.81,0.0,0.0,0.0
0.47916629910469055,-1.0360498e-05,0.00039612316,0.018969418,1.0752282,-1.9180431,6.9121747,-0.0,0.0,3.7503612,1.0360498e-08,-3.9612317e-07,-1.896942e-05,9.81,0.0,0.0,0.0
0.4812496304512024,0.00011020352,-0.0021473789,0.018637083,1.0802219,-1.9265728,6.9830613,-0.0,0.0,3.7629855,-1.1020352e-07,2.147379e-06,-1.8637083e-05,9.81,0.0,0.0,0.0
0.48333296179771423,0.00022618927,-0.004598675,0.018309668,1.0852516,-1.9351002,7.054242,-0.0,0.0,3.7755835,-2.2618927e-07,4.598675e-06,-1.8309669e-05,9.81,0.0,0.0,0.0
0.4854162931442261,0.00033280125,-0.0068582753,0.017975088,1.0903152,-1.9436262,7.1257176,-0.0,0.0,3.7881553,-3.3280128e-07,6.858276e-06,-1.797509e-05,9.81,0.0,0.0,0.0
0.4874996244907379,0.00042546436,-0.008835596,0.017621225,1.0954084,-1.952152,7.1974845,-0.0,0.0,3.800701,-4.2546438e-07,8.835596e-06,-1.7621225e-05,9.81,0.0,0.0,0.0
0.48958295583724976,0.0005006278,-0.010450766,0.017239995,1.1005263,-1.960674,7.269543,-0.0,0.0,3.8132203,-5.0062783e-07,1.0450767e-05,-1.7239996e-05,9.81,0.0,0.0,0.0
0.4916662871837616,0.0005556649,-0.011639247,0.01683127,1.1056663,-1.9691958,7.3418994,-0.0,0.0,3.8257136,-5.556649e-07,1.16392475e-05,-1.683127e-05,9.81,0.0,0.0,0.0
0.49374961853027344,0.00058825035,-0.01235372,0.016397351,1.110818,-1.977717,7.4145484,-0.0,0.0,3.838181,-5.882504e-07,1.2353721e-05,-1.6397353e-05,9.81,0.0,0.0,0.0
0.4958329498767853,0.0005975425,-0.012566219,0.015954353,1.1159738,-1.986237,7.4874887,-0.0,0.0,3.8506224,-5.975425e-07,1.256622e-05,-1.5954354e-05,9.81,0.0,0.0,0.0
0.4979162812232971,0.00058338436,-0.012268096,0.015516844,1.1211305,-1.9947553,7.56073,-0.0,0.0,3.8630378,-5.833844e-07,1.2268097e-05,-1.5516844e-05,9.81,0.0,0.0,0.0
0.49999961256980896,0.00054585584,-0.011471662,0.015104283,1.1262765,-2.0032735,7.6342635,-0.0,0.0,3.8754272,-5.4585587e-07,1.1471662e-05,-1.5104283e-05,9.81,0.0,0.0,0.0
0.5020829439163208,0.00048778398,-0.010207799,0.014730705,1.1314023,-2.0117927,7.708094,-0.0,0.0,3.887791,-4.87784e-07,1.02078e-05,-1.47307055e-05,9.81,0.0,0.0,0.0
0.504166305065155,0.00040983374,-0.00852798,0.014409751,1.136502,-2.0203109,7.7822165,-0.0,0.0,3.9001288,-4.0983375e-07,8.527981e-06,-1.4409751e-05,9.81,0.0,0.0,0.0
0.5062496662139893,0.00031531067,-0.006499757,0.014149426,1.1415741,-2.0288317,7.85664,-0.0,0.0,3.912441,-3.1531067e-07,6.4997575e-06,-1.41494265e-05,9.81,0.0,0.0,0.0
0.5083330273628235,0.00020835677,-0.0042051487,0.0139494855,1.1466085,-2.0373526,7.931355,-0.0,0.0,3.9247277,-2.0835678e-07,4.205149e-06,-1.3949486e-05,9.81,0.0,0.0,0.0
0.5104163885116577,9.292399e-05,-0.0017378422,0.013798982,1.1516049,-2.0458746,8.0063715,-0.0,0.0,3.9369886,-9.2924e-08,1.7378424e-06,-1.3798983e-05,9.81,0.0,0.0,0.0
0.5124997496604919,-2.6255497e-05,0.00080104114,0.013679076,1.1565598,-2.0543997,8.081683,-0.0,0.0,3.949224,2.6255497e-08,-8.0104115e-07,-1.3679077e-05,9.81,0.0,0.0,0.0
0.5145831108093262,-0.00014426431,0.003307711,0.013568319,1.1614748,-2.0629253,8.157289,-0.0,0.0,3.961434,1.4426432e-07,-3.3077113e-06,-1.356832e-05,9.81,0.0,0.0,0.0
0.5166664719581604,-0.00025566376,0.005680282,0.013446098,1.1663496,-2.071453,8.233185,-0.0,0.0,3.9736185,2.5566376e-07,-5.6802824e-06,-1.3446099e-05,9.81,0.0,0.0,0.0
0.5187498331069946,-0.0003560516,0.007822912,0.013293186,1.1711845,-2.079986,8.30938,-0.0,0.0,3.9857776,3.5605163e-07,-7.822912e-06,-1.3293186e-05,9.81,0.0,0.0,0.0
0.5208331942558289,-0.0004413023,0.009649596,0.013098326,1.175986,-2.0885181,8.385864,-0.0,0.0,3.9979115,4.4130235e-07,-9.649597e-06,-1.3098326e-05,9.81,0.0,0.0,0.0
0.5229165554046631,-0.00050826673,0.011087729,0.012857229,1.1807622,-2.0970511,8.462638,-0.0,0.0,4.01002,5.0826674e-07,-1.1087729e-05,-1.285723e-05,9.81,0.0,0.0,0.0
0.5249999165534973,-0.00055421353,0.012080398,0.012572741,1.1855186,-2.1055863,8.539702,-0.0,0.0,4.0221033,5.5421356e-07,-1.2080399e-05,-1.2572742e-05,9.81,0.0,0.0,0.0
0.5270832777023315,-0.0005775413,0.012587996,0.012253607,1.1902673,-2.1141195,8.617054,-0.0,0.0,4.0341616,5.775413e-07,-1.2587997e-05,-1.2253608e-05,9.81,0.0,0.0,0.0
0.5291666388511658,-0.0005779553,0.012590684,0.011921329,1.1950146,-2.122654,8.694693,-0.0,0.0,4.0461946,5.779553e-07,-1.25906845e-05,-1.192133e-05,9.81,0.0,0.0,0.0
0.53125,-0.0005554254,0.012087859,0.011595657,1.1997703,-2.131188,8.772615,-0.0,0.0,4.0582023,5.5542546e-07,-1.2087859e-05,-1.1595657e-05,9.81,0.0,0.0,0.0
0.5333333611488342,-0.0005106586,0.011099132,0.011302009,1.2045416,-2.1397214,8.85082,-0.0,0.0,4.070185,5.1065865e-07,-1.1099132e-05,-1.130201e-05,9.81,0.0,0.0,0.0
0.5354167222976685,-0.0004452417,0.009663353,0.011060592,1.2093427,-2.1482515,8.929303,-0.0,0.0,4.0821433,4.452417e-07,-9.663353e-06,-1.1060592e-05,9.81,0.0,0.0,0.0
0.5375000834465027,-0.00036188366,0.00783716,0.0108878855,1.2141792,-2.156778,9.008065,-0.0,0.0,4.094076,3.6188368e-07,-7.8371595e-06,-1.0887886e-05,9.81,0.0,0.0,0.0
0.5395834445953369,-0.0002632941,0.005694488,0.010784401,1.2190561,-2.1653032,9.087108,-0.0,0.0,4.105984,2.632941e-07,-5.694488e-06,-1.0784401e-05,9.81,0.0,0.0,0.0
0.5416668057441711,-0.00015374948,0.0033217517,0.010746573,1.2239687,-2.173826,9.166424,-0.0,0.0,4.1178675,1.537495e-07,-3.3217518e-06,-1.0746574e-05,9.81,0.0,0.0,0.0
0.5437501668930054,-3.773102e-05,0.00081647135,0.01075449,1.2289344,-2.1823478,9.246018,-0.0,0.0,4.129726,3.7731024e-08,-8.164714e-07,-1.0754491e-05,9.81,0.0,0.0,0.0
0.5458335280418396,8.03133e-05,-0.0017188359,0.01078503,1.2339464,-2.1908672,9.325888,-0.0,0.0,4.1415596,-8.0313306e-08,1.718836e-06,-1.0785031e-05,9.81,0.0,0.0,0.0
0.5479168891906738,0.00019523216,-0.004181328,0.010808688,1.2390044,-2.199383,9.406032,-0.0,0.0,4.153369,-1.9523218e-07,4.181328e-06,-1.0808688e-05,9.81,0.0,0.0,0.0
0.5500002503395081,0.00030184776,-0.0064721843,0.010803625,1.2441072,-2.2078981,9.486448,-0.0,0.0,4.1651535,-3.0184776e-07,6.472185e-06,-1.0803626e-05,9.81,0.0,0.0,0.0
0.5520836114883423,0.00039586515,-0.008498795,0.010747768,1.249251,-2.216411,9.567139,-0.0,0.0,4.1769137,-3.9586516e-07,8.498796e-06,-1.0747768e-05,9.81,0.0,0.0,0.0
0.5541669726371765,0.00047365832,-0.010181076,0.010631971,1.2544335,-2.224925,9.648106,-0.0,0.0,4.188649,-4.7365833e-07,1.01810765e-05,-1.0631971e-05,9.81,0.0,0.0,0.0
0.5562503337860107,0.0005316791,-0.011453687,0.01045692,1.2596393,-2.233437,9.729343,-0.0,0.0,4.2003603,-5.316791e-07,1.1453688e-05,-1.045692e-05,9.81,0.0,0.0,0.0
0.558333694934845,0.0005687121,-0.0122656645,0.010228527,1.2648666,-2.2419477,9.81086,-0.0,0.0,4.212047,-5.687121e-07,1.2265665e-05,-1.0228528e-05,9.81,0.0,0.0,0.0
0.5604170560836792,0.00058256695,-0.01258618,0.009965232,1.2700999,-2.2504568,9.89265,-0.0,0.0,4.2237096,-5.82567e-07,1.2586181e-05,-9.9652325e-06,9.81,0.0,0.0,0.0
0.5625004172325134,0.0005741918,-0.012401359,0.009688721,1.2753266,-2.258967,9.97472,-0.0,0.0,4.2353477,-5.741918e-07,1.24013595e-05,-9.688722e-06,9.81,0.0,0.0,0.0
0.5645837783813477,0.0005430127,-0.011718148,0.009433773,1.28054,-2.267476,10.057062,-0.0,0.0,4.2469616,-5.4301273e-07,1.1718149e-05,-9.433774e-06,9.81,0.0,0.0,0.0
0.5666671395301819,0.00049072446,-0.010562568,0.00922325,1.2857344,-2.2759848,10.139682,-0.0,0.0,4.258551,-4.9072446e-07,1.0562569e-05,-9.22325e-06,9.81,0.0,0.0,0.0
0.5687505006790161,0.00041893922,-0.008979466,0.009079175,1.2908992,-2.2844954,10.222584,-0.0,0.0,4.270117,-4.1893924e-07,8.979467e-06,-9.0791755e-06,9.81,0.0,0.0,0.0
0.5708338618278503,0.00032987213,-0.0070322007,0.009014785,1.2960246,-2.2930067,10.305759,-0.0,0.0,4.281658,-3.2987214e-07,7.032201e-06,-9.014786e-06,9.81,0.0,0.0,0.0
0.5729172229766846,0.00022762961,-0.0047986484,0.00902966,1.3011049,-2.3015223,10.389219,-0.0,0.0,4.2931757,-2.2762963e-07,4.7986487e-06,-9.029661e-06,9.81,0.0,0.0,0.0
0.5750005841255188,0.00011588138,-0.0023706374,0.0091079185,1.3061324,-2.3100376,10.472952,-0.0,0.0,4.304669,-1.1588139e-07,2.3706375e-06,-9.107919e-06,9.81,0.0,0.0,0.0
0.577083945274353,-8.640345e-07,0.0001521866,0.009224898,1.3111072,-2.3185558,10.556966,-0.0,0.0,4.3161383,8.6403457e-10,-1.5218662e-07,-9.224898e-06,9.81,0.0,0.0,0.0
0.5791673064231873,-0.00011725444,0.0026672208,0.009350715,1.3160307,-2.3270793,10.641256,-0.0,0.0,4.327584,1.1725445e-07,-2.667221e-06,-9.350716e-06,9.81,0.0,0.0,0.0
0.5812506675720215,-0.00022854179,0.0050714407,0.009449856,1.320894,-2.3356051,10.725824,-0.0,0.0,4.3390055,2.285418e-07,-5.071441e-06,-9.449856e-06,9.81,0.0,0.0,0.0
0.5833340287208557,-0.00033065444,0.007269462,0.009502745,1.3257034,-2.3441324,10.810667,-0.0,0.0,4.3504033,3.3065444e-07,-7.2694625e-06,-9.502745e-06,9.81,0.0,0.0,0.0
0.5854173898696899,-0.00041889423,0.009174474,0.009490542,1.330482,-2.352662,10.895787,-0.0,0.0,4.3617773,4.1889425e-07,-9.174474e-06,-9.490543e-06,9.81,0.0,0.0,0.0
0.5875007510185242,-0.00048987917,0.010711364,0.009409048,1.3352205,-2.361196,10.981176,-0.0,0.0,4.373128,4.898792e-07,-1.0711365e-05,-9.409048e-06,9.81,0.0,0.0,0.0
0.5895841121673584,-0.0005408684,0.0118197715,0.009257499,1.3399324,-2.3697298,11.066839,-0.0,0.0,4.3844547,5.408684e-07,-1.1819772e-05,-9.257499e-06,9.81,0.0,0.0,0.0
0.5916674733161926,-0.00057004555,0.012457236,0.009051076,1.3446212,-2.3782651,11.152769,-0.0,0.0,4.395758,5.700456e-07,-1.2457236e-05,-9.051077e-06,9.81,0.0,0.0,0.0
0.5937508344650269,-0.0005768599,0.012598434,0.008809036,1.3493116,-2.3868022,11.238976,-0.0,0.0,4.4070377,5.7686e-07,-1.2598435e-05,-8.809036e-06,9.81,0.0,0.0,0.0
0.5958341956138611,-0.0005611066,0.012237621,0.008567032,1.3540119,-2.3953362,11.325439,-0.0,0.0,4.418294,5.611066e-07,-1.2237621e-05,-8.567033e-06,9.81,0.0,0.0,0.0
0.5979175567626953,-0.0005227183,0.011387942,0.0083549535,1.3587288,-2.403869,11.412172,-0.0,0.0,4.429527,5.227183e-07,-1.1387943e-05,-8.354954e-06,9.81,0.0,0.0,0.0
0.6000009179115295,-0.00046385417,0.010081011,0.008197353,1.3634675,-2.4123993,11.4991665,-0.0,0.0,4.4407363,4.638542e-07,-1.0081011e-05,-8.197354e-06,9.81,0.0,0.0,0.0
0.6020842790603638,-0.00038635114,0.008368074,0.008116782,1.3682468,-2.420926,11.586425,-0.0,0.0,4.4519224,3.8635116e-07,-8.368074e-06,-8.116782e-06,9.81,0.0,0.0,0.0
0.604167640209198,-0.00029293157,0.006316895,0.008122622,1.3730896,-2.4294505,11.673941,-0.0,0.0,4.463085,2.929316e-07,-6.3168955e-06,-8.122623e-06,9.81,0.0,0.0,0.0
0.6062510013580322,-0.00018688594,0.0040113754,0.008204764,1.3779739,-2.4379754,11.761717,-0.0,0.0,4.4742246,1.8688596e-07,-4.0113755e-06,-8.2047645e-06,9.81,0.0,0.0,0.0
0.6083343625068665,-7.256551e-05,0.0015461972,0.008343835,1.3829125,-2.446496,11.849746,-0.0,0.0,4.4853406,7.256551e-08,-1.5461973e-06,-8.343835e-06,9.81,0.0,0.0,0.0
0.6104177236557007,4.4498825e-05,-0.0009786114,0.008510309,1.3879182,-2.4550166,11.938036,-0.0,0.0,4.4964337,-4.4498826e-08,9.786114e-07,-8.510309e-06,9.81,0.0,0.0,0.0
0.6125010848045349,0.00015992078,-0.0034611083,0.008672394,1.3929815,-2.4635332,12.02658,-0.0,0.0,4.5075035,-1.5992079e-07,3.4611085e-06,-8.672394e-06,9.81,0.0,0.0,0.0
0.6145844459533691,0.00026874724,-0.0058006584,0.008796679,1.3980992,-2.4720464,12.115381,-0.0,0.0,4.5185504,-2.6874724e-07,5.8006585e-06,-8.796679e-06,9.81,0.0,0.0,0.0
0.6166678071022034,0.00036632596,-0.007904432,0.008862612,1.4032695,-2.4805603,12.204441,-0.0,0.0,4.5295744,-3.6632596e-07,7.904432e-06,-8.862612e-06,9.81,0.0,0.0,0.0
0.6187511682510376,0.0004490879,-0.009689418,0.008854658,1.4084859,-2.4890718,12.293755,-0.0,0.0,4.5405755,-4.4908793e-07,9.689418e-06,-8.8546585e-06,9.81,0.0,0.0,0.0
0.6208345293998718,0.0005131904,-0.011087319,0.00877367,1.4137417,-2.4975812,12.383324,-0.0,0.0,4.5515532,-5.131904e-07,1.108732e-05,-8.77367e-06,9.81,0.0,0.0,0.0
0.622917890548706,0.0005572622,-0.012042847,0.008621144,1.4190221,-2.50609,12.473146,-0.0,0.0,4.5625086,-5.5726224e-07,1.2042848e-05,-8.621145e-06,9.81,0.0,0.0,0.0
0.6250012516975403,0.00057923276,-0.0125199165,0.00841468,1.4243128,-2.5145993,12.563233,-0.0,0.0,4.573441,-5.792328e-07,1.2519917e-05,-8.41468e-06,9.81,0.0,0.0,0.0
0.6270846128463745,0.0005785497,-0.012499447,0.008185655,1.4296056,-2.523108,12.653574,-0.0,0.0,4.5843506,-5.785497e-07,1.2499448e-05,-8.185655e-06,9.81,0.0,0.0,0.0
0.6291679739952087,0.0005553671,-0.01198098,0.007965064,1.4348993,-2.5316157,12.744175,-0.0,0.0,4.5952373,-5.5536714e-07,1.198098e-05,-7.9650645e-06,9.81,0.0,0.0,0.0
0.631251335144043,0.0005106849,-0.0109845335,0.0077792513,1.4401592,-2.5401235,12.835036,-0.0,0.0,4.6061015,-5.106849e-07,1.0984534e-05,-7.779252e-06,9.81,0.0,0.0,0.0
0.6333346962928772,0.0004454874,-0.009546544,0.0076623904,1.4453806,-2.5486302,12.926161,-0.0,0.0,4.616943,-4.4548744e-07,9.546545e-06,-7.662391e-06,9.81,0.0,0.0,0.0
0.6354180574417114,0.00036320547,-0.007724466,0.0076252585,1.4505557,-2.5571406,13.017545,-0.0,0.0,4.627762,-3.632055e-07,7.724466e-06,-7.625259e-06,9.81,0.0,0.0,0.0
0.6375014185905457,0.0002653352,-0.005589945,0.0076793395,1.4556795,-2.5656552,13.109196,-0.0,0.0,4.6385584,-2.6533522e-07,5.589945e-06,-7.679339e-06,9.81,0.0,0.0,0.0
0.6395847797393799,0.00015683199,-0.0032291748,0.007811219,1.4607453,-2.5741715,13.201102,-0.0,0.0,4.649332,-1.5683199e-07,3.2291748e-06,-7.811219e-06,9.81,0.0,0.0,0.0
0.6416681408882141,4.183041e-05,-0.00074060576,0.007988586,1.4657435,-2.5826907,13.29327,-0.0,0.0,4.6600833,-4.1830415e-08,7.406058e-07,-7.988587e-06,9.81,0.0,0.0,0.0
0.6437515020370483,-7.500441e-05,0.0017753176,0.008185082,1.4706757,-2.591212,13.385703,-0.0,0.0,4.670812,7.5004415e-08,-1.7753176e-06,-8.185082e-06,9.81,0.0,0.0,0.0
0.6458348631858826,-0.00018831203,0.0042165956,0.008360678,1.4755374,-2.5997431,13.478399,-0.0,0.0,4.6815186,1.8831204e-07,-4.2165957e-06,-8.360678e-06,9.81,0.0,0.0,0.0
0.6479182243347168,-0.00029410736,0.006486077,0.008489154,1.4803276,-2.6082745,13.571348,-0.0,0.0,4.692203,2.9410737e-07,-6.4860774e-06,-8.489154e-06,9.81,0.0,0.0,0.0
0.650001585483551,-0.00038797047,0.0084938435,0.008547501,1.485061,-2.6168084,13.664559,-0.0,0.0,4.702865,3.879705e-07,-8.493844e-06,-8.547501e-06,9.81,0.0,0.0,0.0
0.6520849466323853,-0.00046546292,0.0101619065,0.008531859,1.4897406,-2.6253495,13.758027,-0.0,0.0,4.713505,4.6546293e-07,-1.0161907e-05,-8.53186e-06,9.81,0.0,0.0,0.0
0.6541683077812195,-0.00052401004,0.011426121,0.008439378,1.494394,-2.6338909,13.851754,-0.0,0.0,4.7241225,5.240101e-07,-1.1426121e-05,-8.439379e-06,9.81,0.0,0.0,0.0
0.6562516689300537,-0.0005617131,0.0122372545,0.008279574,1.4990147,-2.6424313,13.945731,-0.0,0.0,4.7347183,5.6171314e-07,-1.2237255e-05,-8.279574e-06,9.81,0.0,0.0,0.0
0.6583350300788879,-0.0005767299,0.012565086,0.008077732,1.5036322,-2.6509728,14.039957,-0.0,0.0,4.7452917,5.767299e-07,-1.2565086e-05,-8.077733e-06,9.81,0.0,0.0,0.0
0.6604183912277222,-0.00056908536,0.012395555,0.007856577,1.5082495,-2.6595154,14.134442,-0.0,0.0,4.755843,5.690854e-07,-1.2395556e-05,-7.856577e-06,9.81,0.0,0.0,0.0
0.6625017523765564,-0.00053941365,0.01173482,0.0076476606,1.5128859,-2.6680543,14.229168,-0.0,0.0,4.7663727,5.394137e-07,-1.1734821e-05,-7.647661e-06,9.81,0.0,0.0,0.0
0.6645851135253906,-0.00048844144,0.010606643,0.0074869865,1.5175467,-2.676592,14.324142,-0.0,0.0,4.7768803,4.8844146e-07,-1.0606644e-05,-7.4869868e-06,9.81,0.0,0.0,0.0
0.6666684746742249,-0.00041787513,0.00905427,0.0074009616,1.5222601,-2.6851296,14.419363,-0.0,0.0,4.787366,4.1787516e-07,-9.05427e-06,-7.4009617e-06,9.81,0.0,0.0,0.0
0.6687518358230591,-0.00033043604,0.0071388483,0.0073998906,1.527023,-2.6936638,14.514826,-0.0,0.0,4.7978296,3.3043605e-07,-7.1388486e-06,-7.399891e-06,9.81,0.0,0.0,0.0
0.6708351969718933,-0.00022838707,0.0049359323,0.007488412,1.531846,-2.7021937,14.610526,-0.0,0.0,4.808272,2.2838708e-07,-4.935933e-06,-7.4884124e-06,9.81,0.0,0.0,0.0
0.6729185581207275,-0.00011776236,0.0025359725,0.007640928,1.536749,-2.710721,14.70647,-0.0,0.0,4.818692,1.1776237e-07,-2.5359727e-06,-7.640929e-06,9.81,0.0,0.0,0.0
0.6750019192695618,-1.285749e-06,3.6574434e-05,0.007835766,1.5417197,-2.7192442,14.802654,-0.0,0.0,4.8290906,1.2857491e-09,-3.6574438e-08,-7.835767e-06,9.81,0.0,0.0,0.0
0.677085280418396,0.00011555728,-0.0024605333,0.0080363825,1.5467675,-2.727766,14.899078,-0.0,0.0,4.8394675,-1.1555729e-07,2.4605333e-06,-8.0363825e-06,9.81,0.0,0.0,0.0
0.6791686415672302,0.00022748363,-0.0048561525,0.0082065575,1.551884,-2.7362826,14.995734,-0.0,0.0,4.849823,-2.2748364e-07,4.856153e-06,-8.206558e-06,9.81,0.0,0.0,0.0
0.6812520027160645,0.0003301324,-0.007053716,0.008324343,1.5570698,-2.7447975,15.092637,-0.0,0.0,4.8601565,-3.3013242e-07,7.053716e-06,-8.324343e-06,9.81,0.0,0.0,0.0
0.6833353638648987,0.00041921265,-0.008968067,0.008370193,1.562316,-2.7533095,15.189774,-0.0,0.0,4.8704686,-4.1921268e-07,8.968068e-06,-8.370193e-06,9.81,0.0,0.0,0.0
0.6854187250137329,0.0004916493,-0.010524563,0.008334029,1.5676143,-2.7618208,15.287148,-0.0,0.0,4.8807592,-4.9164936e-07,1.0524563e-05,-8.334029e-06,9.81,0.0,0.0,0.0
0.6875020861625671,0.00054450345,-0.011664224,0.008225153,1.5729462,-2.7703307,15.384772,-0.0,0.0,4.8910284,-5.4450345e-07,1.1664224e-05,-8.225154e-06,9.81,0.0,0.0,0.0
0.6895854473114014,0.0005760513,-0.012342993,0.008056537,1.5783046,-2.7788403,15.482626,-0.0,0.0,4.901276,-5.760513e-07,1.2342994e-05,-8.056538e-06,9.81,0.0,0.0,0.0
0.6916688084602356,0.0005852186,-0.012535188,0.007850153,1.5836728,-2.7873485,15.580729,-0.0,0.0,4.911503,-5.8521863e-07,1.2535189e-05,-7.850153e-06,9.81,0.0,0.0,0.0
0.6937521696090698,0.00057201565,-0.012232303,0.0076365354,1.5890434,-2.7958565,15.679073,-0.0,0.0,4.921708,-5.7201567e-07,1.2232304e-05,-7.636536e-06,9.81,0.0,0.0,0.0
0.695835530757904,0.00053677056,-0.011445033,0.007444471,1.5943701,-2.8043633,15.777654,-0.0,0.0,4.931892,-5.367706e-07,1.1445034e-05,-7.4444715e-06,9.81,0.0,0.0,0.0
0.6979188919067383,0.0004804845,-0.010202729,0.007305626,1.5996711,-2.8128726,15.876491,-0.0,0.0,4.9420547,-4.804845e-07,1.020273e-05,-7.3056262e-06,9.81,0.0,0.0,0.0
0.7000022530555725,0.00040586328,-0.008551755,0.007247657,1.6049185,-2.8213806,15.975566,-0.0,0.0,4.952196,-4.058633e-07,8.551755e-06,-7.2476573e-06,9.81,0.0,0.0,0.0
0.7020856142044067,0.00031444294,-0.0065572676,0.0072800084,1.6101087,-2.8298957,16.074894,-0.0,0.0,4.9623165,-3.1444296e-07,6.557268e-06,-7.280009e-06,9.81,0.0,0.0,0.0
0.704168975353241,0.0002103746,-0.0043004844,0.0073915124,1.6152209,-2.8384142,16.17446,-0.0,0.0,4.972416,-2.1037461e-07,4.3004848e-06,-7.3915126e-06,9.81,0.0,0.0,0.0
0.7062523365020752,9.749341e-05,-0.001872855,0.0075616385,1.6202537,-2.8469353,16.274273,-0.0,0.0,4.9824944,-9.749341e-08,1.8728551e-06,-7.561639e-06,9.81,0.0,0.0,0.0
0.7083356976509094,-1.9419647e-05,0.0006277097,0.007764455,1.6252073,-2.8554585,16.37433,-0.0,0.0,4.992552,1.9419648e-08,-6.2770977e-07,-7.764455e-06,9.81,0.0,0.0,0.0
0.7104190587997437,-0.00013568194,0.003099877,0.007963259,1.6300856,-2.8639877,16.474644,-0.0,0.0,5.0025883,1.3568194e-07,-3.0998772e-06,-7.963259e-06,9.81,0.0,0.0,0.0
0.7125024199485779,-0.0002456744,0.00544508,0.008124191,1.6348779,-2.8725204,16.57519,-0.0,0.0,5.0126038,2.456744e-07,-5.44508e-06,-8.1241915e-06,9.81,0.0,0.0,0.0
0.7145857810974121,-0.00034564547,0.0075710514,0.00822811,1.6396033,-2.88106,16.675985,-0.0,0.0,5.0225983,3.4564547e-07,-7.571052e-06,-8.22811e-06,9.81,0.0,0.0,0.0
0.7166691422462463,-0.00043190026,0.009394627,0.008258112,1.6442611,-2.8895996,16.777025,-0.0,0.0,5.032572,4.3190028e-07,-9.394627e-06,-8.258112e-06,9.81,0.0,0.0,0.0
0.7187525033950806,-0.00049981626,0.010846386,0.008205263,1.6488568,-2.8981457,16.878304,-0.0,0.0,5.042525,4.998163e-07,-1.0846386e-05,-8.205263e-06,9.81,0.0,0.0,0.0
0.7208358645439148,-0.0005488198,0.01186981,0.008084695,1.6534193,-2.9066932,16.979822,-0.0,0.0,5.052457,5.488198e-07,-1.186981e-05,-8.084695e-06,9.81,0.0,0.0,0.0
0.722919225692749,-0.0005754139,0.012426903,0.00790658,1.6579492,-2.9152427,17.081572,-0.0,0.0,5.0623684,5.7541394e-07,-1.2426903e-05,-7.90658e-06,9.81,0.0,0.0,0.0
0.7250025868415833,-0.00057981734,0.012495736,0.0076941634,1.6624787,-2.9237945,17.183567,-0.0,0.0,5.0722594,5.7981737e-07,-1.2495736e-05,-7.694163e-06,9.81,0.0,0.0,0.0
0.7270859479904175,-0.00056169706,0.012073321,0.0074831247,1.6670301,-2.9323397,17.28579,-0.0,0.0,5.08213,5.616971e-07,-1.2073322e-05,-7.483125e-06,9.81,0.0,0.0,0.0
0.7291693091392517,-0.00052138965,0.011174841,0.007303253,1.6716075,-2.9408886,17.388247,-0.0,0.0,5.0919795,5.2138967e-07,-1.1174841e-05,-7.3032534e-06,9.81,0.0,0.0,0.0
0.7312526702880859,-0.00045982492,0.009832761,0.007188497,1.6762398,-2.9494274,17.490929,-0.0,0.0,5.1018085,4.5982495e-07,-9.832762e-06,-7.1884974e-06,9.81,0.0,0.0,0.0
0.7333360314369202,-0.00037978007,0.008099605,0.0071504596,1.6809299,-2.9579642,17.59383,-0.0,0.0,5.111617,3.797801e-07,-8.099606e-06,-7.15046e-06,9.81,0.0,0.0,0.0
0.7354193925857544,-0.00028505805,0.0060416777,0.007199848,1.6856899,-2.9664984,17.696968,-0.0,0.0,5.1214056,2.8505806e-07,-6.041678e-06,-7.1998484e-06,9.81,0.0,0.0,0.0
0.7375027537345886,-0.00017810613,0.003742803,0.0073295697,1.6905385,-2.97503,17.800335,-0.0,0.0,5.1311736,1.7810613e-07,-3.742803e-06,-7.32957e-06,9.81,0.0,0.0,0.0
0.7395861148834229,-6.308162e-05,0.0012973485,0.00750757,1.695458,-2.983557,17.903913,-0.0,0.0,5.140921,6.308162e-08,-1.2973486e-06,-7.5075704e-06,9.81,0.0,0.0,0.0
0.7416694760322571,5.5558514e-05,-0.0011964089,0.0077074943,1.7004719,-2.9920826,18.007729,-0.0,0.0,5.1506486,-5.5558516e-08,1.1964089e-06,-7.707495e-06,9.81,0.0,0.0,0.0
0.7437528371810913,0.00017164205,-0.003640029,0.0078997165,1.7055712,-3.000602,18.11176,-0.0,0.0,5.1603556,-1.7164206e-07,3.6400293e-06,-7.899717e-06,9.81,0.0,0.0,0.0
0.7458361983299255,0.00028014794,-0.005935364,0.008051055,1.7107601,-3.0091221,18.216013,-0.0,0.0,5.1700425,-2.8014796e-07,5.9353642e-06,-8.051055e-06,9.81,0.0,0.0,0.0
